{
  "Locations": [
    {
      "id": 1,
      "location_name": "TPWD Paddling Trail 1",
      "feature_name": "Lady Bird Lake",
      "coordinates": [30.2524, -97.7374],
      "state": "Texas",
      "city": "Austin",
      "type": "lake",
      "fish_ids": [1, 2, 4, 5, 6, 7, 8, 9, 10, 13, 14, 15, 16, 17, 18, 19, 21, 22, 28, 29, 31, 32, 34]
    },
    {
      "id": 2,
      "location_name": "TPWD Paddling Trail 2",
      "feature_name": "Lady Bird Lake",
      "coordinates": [30.2515, -97.7362],
      "state": "Texas",
      "city": "Austin",
      "type": "lake",
      "fish_ids": [1, 2, 4, 5, 6, 7, 8, 9, 10, 13, 14, 15, 16, 17, 18, 19, 21, 22, 28, 29, 31, 32, 34]
    },
    {
      "id": 3,
      "location_name": "TPWD Paddling Trail 3",
      "feature_name": "Lady Bird Lake",
      "coordinates": [30.2483, -97.72782],
      "state": "Texas",
      "city": "Austin",
      "type": "lake",
      "fish_ids": [1, 2, 4, 5, 6, 7, 8, 9, 10, 13, 14, 15, 16, 17, 18, 19, 21, 22, 28, 29, 31, 32, 34]
    },
    {
      "id": 4,
      "location_name": "Caddo Lake",
      "latitude": 30.88,
      "longitude": -105.8308,
      "state": "Maryland",
      "city": "Caddo City",
      "type": "lake",
      "fish_ids": [16, 48, 27],
      "lure_ids": [42, 37]
    },
    {
      "id": 5,
      "location_name": "Columbia River",
      "latitude": 39.03,
      "longitude": -122.3593,
      "state": "Maryland",
      "city": "Columbia City",
      "type": "river",
      "fish_ids": [3],
      "lure_ids": [22, 13]
    },
    {
      "id": 6,
      "location_name": "Caddo Lake",
      "latitude": 38.2668,
      "longitude": -87.6418,
      "state": "Wyoming",
      "city": "Caddo City",
      "type": "lake",
      "fish_ids": [51, 56, 33, 24],
      "lure_ids": [46, 29, 26]
    },
    {
      "id": 7,
      "location_name": "Big Bear Lake",
      "latitude": 24.4501,
      "longitude": -74.2024,
      "state": "California",
      "city": "Big City",
      "type": "lake",
      "fish_ids": [36],
      "lure_ids": [3, 45, 38, 34]
    },
    {
      "id": 8,
      "location_name": "Puget Sound",
      "latitude": 44.7632,
      "longitude": -96.1126,
      "state": "Florida",
      "city": "Puget City",
      "type": "saltwater",
      "fish_ids": [26, 51, 62],
      "lure_ids": [11, 41, 38, 24]
    },
    {
      "id": 9,
      "location_name": "Bighorn River",
      "latitude": 34.407,
      "longitude": -77.9541,
      "state": "California",
      "city": "Bighorn City",
      "type": "river",
      "fish_ids": [26, 51, 23, 59, 16],
      "lure_ids": [9, 10, 44, 11]
    },
    {
      "id": 10,
      "location_name": "Chesapeake Bay",
      "latitude": 26.1138,
      "longitude": -117.8156,
      "state": "Montana",
      "city": "Chesapeake City",
      "type": "saltwater",
      "fish_ids": [6],
      "lure_ids": [30]
    },
    {
      "id": 11,
      "location_name": "Bighorn River",
      "latitude": 36.3996,
      "longitude": -93.467,
      "state": "Wyoming",
      "city": "Bighorn City",
      "type": "river",
      "fish_ids": [26, 61, 42, 21],
      "lure_ids": [11, 35, 10]
    },
    {
      "id": 12,
      "location_name": "Lake Michigan",
      "latitude": 42.3145,
      "longitude": -98.2831,
      "state": "Michigan",
      "city": "Lake City",
      "type": "lake",
      "fish_ids": [56, 27],
      "lure_ids": [32]
    },
    {
      "id": 13,
      "location_name": "Big Bear Lake",
      "latitude": 47.6394,
      "longitude": -111.687,
      "state": "Utah",
      "city": "Big City",
      "type": "lake",
      "fish_ids": [25],
      "lure_ids": [2, 4, 44]
    },
    {
      "id": 14,
      "location_name": "Puget Sound",
      "latitude": 42.1242,
      "longitude": -113.1871,
      "state": "Florida",
      "city": "Puget City",
      "type": "saltwater",
      "fish_ids": [39, 36, 16, 59],
      "lure_ids": [13]
    },
    {
      "id": 15,
      "location_name": "Lake Havasu",
      "latitude": 47.642,
      "longitude": -77.1099,
      "state": "Utah",
      "city": "Lake City",
      "type": "lake",
      "fish_ids": [41, 32],
      "lure_ids": [25, 36]
    },
    {
      "id": 16,
      "location_name": "Lake Tahoe",
      "latitude": 25.6531,
      "longitude": -98.6982,
      "state": "Michigan",
      "city": "Lake City",
      "type": "lake",
      "fish_ids": [15, 14, 33, 5, 57],
      "lure_ids": [26, 33, 15]
    },
    {
      "id": 17,
      "location_name": "Chesapeake Bay",
      "latitude": 24.9377,
      "longitude": -83.4247,
      "state": "Florida",
      "city": "Chesapeake City",
      "type": "saltwater",
      "fish_ids": [33],
      "lure_ids": [45, 25]
    },
    {
      "id": 18,
      "location_name": "Bighorn River",
      "latitude": 48.7752,
      "longitude": -102.3342,
      "state": "Wyoming",
      "city": "Bighorn City",
      "type": "river",
      "fish_ids": [11, 54, 14, 15],
      "lure_ids": [32]
    },
    {
      "id": 19,
      "location_name": "Great Lakes",
      "latitude": 36.148,
      "longitude": -76.6493,
      "state": "Texas",
      "city": "Great City",
      "type": "lake",
      "fish_ids": [63, 20, 19, 26, 41],
      "lure_ids": [29, 43, 22, 36]
    },
    {
      "id": 20,
      "location_name": "Yellowstone Lake",
      "latitude": 40.3724,
      "longitude": -116.3221,
      "state": "Michigan",
      "city": "Yellowstone City",
      "type": "lake",
      "fish_ids": [51, 38, 54, 58, 49],
      "lure_ids": [11, 18, 5, 13]
    },
    {
      "id": 21,
      "location_name": "Clearwater Beach",
      "latitude": 40.9819,
      "longitude": -122.6298,
      "state": "Wyoming",
      "city": "Clearwater City",
      "type": "saltwater",
      "fish_ids": [5, 26, 41, 16, 20],
      "lure_ids": [8, 16, 31]
    },
    {
      "id": 22,
      "location_name": "Columbia River",
      "latitude": 29.7317,
      "longitude": -124.8728,
      "state": "Montana",
      "city": "Columbia City",
      "type": "river",
      "fish_ids": [36, 55],
      "lure_ids": [27, 23, 9, 14]
    },
    {
      "id": 23,
      "location_name": "Yellowstone Lake",
      "latitude": 29.183,
      "longitude": -68.5301,
      "state": "Wyoming",
      "city": "Yellowstone City",
      "type": "lake",
      "fish_ids": [26, 8, 60, 10],
      "lure_ids": [38]
    },
    {
      "id": 24,
      "location_name": "Lake Okeechobee",
      "latitude": 25.3987,
      "longitude": -117.2375,
      "state": "Texas",
      "city": "Lake City",
      "type": "lake",
      "fish_ids": [59, 57],
      "lure_ids": [9]
    },
    {
      "id": 25,
      "location_name": "Lake Superior",
      "latitude": 45.1089,
      "longitude": -75.9995,
      "state": "Montana",
      "city": "Lake City",
      "type": "lake",
      "fish_ids": [54, 39, 8, 42, 11],
      "lure_ids": [43]
    },
    {
      "id": 26,
      "location_name": "Florida Keys",
      "latitude": 35.1487,
      "longitude": -92.1421,
      "state": "Texas",
      "city": "Florida City",
      "type": "saltwater",
      "fish_ids": [22, 50, 52, 25, 19],
      "lure_ids": [9, 16, 30]
    },
    {
      "id": 27,
      "location_name": "Lake Tahoe",
      "latitude": 24.7217,
      "longitude": -82.1028,
      "state": "Maryland",
      "city": "Lake City",
      "type": "lake",
      "fish_ids": [45, 53, 26],
      "lure_ids": [7, 2, 4]
    },
    {
      "id": 28,
      "location_name": "Lake Okeechobee",
      "latitude": 47.8544,
      "longitude": -92.0898,
      "state": "Utah",
      "city": "Lake City",
      "type": "lake",
      "fish_ids": [62, 46],
      "lure_ids": [41]
    },
    {
      "id": 29,
      "location_name": "Columbia River",
      "latitude": 35.867,
      "longitude": -86.1309,
      "state": "California",
      "city": "Columbia City",
      "type": "river",
      "fish_ids": [38, 58],
      "lure_ids": [20, 22, 46]
    },
    {
      "id": 30,
      "location_name": "Yellowstone Lake",
      "latitude": 42.6342,
      "longitude": -111.9301,
      "state": "Utah",
      "city": "Yellowstone City",
      "type": "lake",
      "fish_ids": [55],
      "lure_ids": [23]
    },
    {
      "id": 31,
      "location_name": "Caddo Lake",
      "latitude": 31.0704,
      "longitude": -100.9621,
      "state": "Minnesota",
      "city": "Caddo City",
      "type": "lake",
      "fish_ids": [7, 50],
      "lure_ids": [14, 45, 10, 26]
    },
    {
      "id": 32,
      "location_name": "Lake Tahoe",
      "latitude": 41.8866,
      "longitude": -70.0488,
      "state": "Florida",
      "city": "Lake City",
      "type": "lake",
      "fish_ids": [11, 8, 49],
      "lure_ids": [23, 38, 6]
    },
    {
      "id": 33,
      "location_name": "Puget Sound",
      "latitude": 35.7421,
      "longitude": -77.9504,
      "state": "Washington",
      "city": "Puget City",
      "type": "saltwater",
      "fish_ids": [59, 50, 52],
      "lure_ids": [35, 20, 13, 30]
    },
    {
      "id": 34,
      "location_name": "San Juan Islands",
      "latitude": 46.0205,
      "longitude": -118.3057,
      "state": "Florida",
      "city": "San City",
      "type": "saltwater",
      "fish_ids": [60, 6, 59],
      "lure_ids": [28]
    },
    {
      "id": 35,
      "location_name": "Monterey Bay",
      "latitude": 35.6284,
      "longitude": -106.812,
      "state": "Maryland",
      "city": "Monterey City",
      "type": "saltwater",
      "fish_ids": [24, 37, 40, 38, 60],
      "lure_ids": [14]
    },
    {
      "id": 36,
      "location_name": "Clearwater Beach",
      "latitude": 40.5803,
      "longitude": -105.2659,
      "state": "Washington",
      "city": "Clearwater City",
      "type": "saltwater",
      "fish_ids": [47, 43, 53, 7],
      "lure_ids": [14, 12]
    },
    {
      "id": 37,
      "location_name": "Lake Superior",
      "latitude": 43.5111,
      "longitude": -121.6525,
      "state": "Michigan",
      "city": "Lake City",
      "type": "lake",
      "fish_ids": [61, 1, 50],
      "lure_ids": [39]
    },
    {
      "id": 38,
      "location_name": "Big Bear Lake",
      "latitude": 34.6427,
      "longitude": -123.8136,
      "state": "Maryland",
      "city": "Big City",
      "type": "lake",
      "fish_ids": [56, 15],
      "lure_ids": [8]
    },
    {
      "id": 39,
      "location_name": "Monterey Bay",
      "latitude": 34.1249,
      "longitude": -103.796,
      "state": "Maryland",
      "city": "Monterey City",
      "type": "saltwater",
      "fish_ids": [56],
      "lure_ids": [9, 12, 14]
    },
    {
      "id": 40,
      "location_name": "Columbia River",
      "latitude": 28.2255,
      "longitude": -121.5302,
      "state": "Arizona",
      "city": "Columbia City",
      "type": "river",
      "fish_ids": [30, 58, 12, 60],
      "lure_ids": [20]
    },
    {
      "id": 41,
      "location_name": "Big Bear Lake",
      "latitude": 42.9713,
      "longitude": -81.4147,
      "state": "Arizona",
      "city": "Big City",
      "type": "lake",
      "fish_ids": [36, 30],
      "lure_ids": [42, 43]
    },
    {
      "id": 42,
      "location_name": "Lake Powell",
      "latitude": 32.0634,
      "longitude": -112.8929,
      "state": "California",
      "city": "Lake City",
      "type": "lake",
      "fish_ids": [6, 3, 5, 52, 28],
      "lure_ids": [25]
    },
    {
      "id": 43,
      "location_name": "Big Bear Lake",
      "latitude": 34.9102,
      "longitude": -90.4811,
      "state": "Minnesota",
      "city": "Big City",
      "type": "lake",
      "fish_ids": [32, 43],
      "lure_ids": [38, 15, 4]
    },
    {
      "id": 44,
      "location_name": "Snake River",
      "latitude": 30.5296,
      "longitude": -70.372,
      "state": "Maryland",
      "city": "Snake City",
      "type": "river",
      "fish_ids": [60],
      "lure_ids": [17]
    },
    {
      "id": 45,
      "location_name": "Great Lakes",
      "latitude": 37.5354,
      "longitude": -113.789,
      "state": "Arizona",
      "city": "Great City",
      "type": "lake",
      "fish_ids": [18, 16],
      "lure_ids": [18, 6, 8, 29]
    },
    {
      "id": 46,
      "location_name": "Florida Keys",
      "latitude": 24.5607,
      "longitude": -94.1776,
      "state": "Maryland",
      "city": "Florida City",
      "type": "saltwater",
      "fish_ids": [37, 61, 25, 24, 57],
      "lure_ids": [11, 36]
    },
    {
      "id": 47,
      "location_name": "Big Bear Lake",
      "latitude": 40.8725,
      "longitude": -79.7761,
      "state": "Arizona",
      "city": "Big City",
      "type": "lake",
      "fish_ids": [34, 14],
      "lure_ids": [22, 40, 32, 36]
    },
    {
      "id": 48,
      "location_name": "Monterey Bay",
      "latitude": 33.4065,
      "longitude": -75.123,
      "state": "Michigan",
      "city": "Monterey City",
      "type": "saltwater",
      "fish_ids": [28, 47],
      "lure_ids": [4, 2]
    },
    {
      "id": 49,
      "location_name": "Puget Sound",
      "latitude": 26.3127,
      "longitude": -93.7308,
      "state": "Utah",
      "city": "Puget City",
      "type": "saltwater",
      "fish_ids": [48, 1, 10, 45, 26],
      "lure_ids": [36, 17, 43]
    },
    {
      "id": 50,
      "location_name": "Lake Powell",
      "latitude": 28.4118,
      "longitude": -89.4942,
      "state": "Michigan",
      "city": "Lake City",
      "type": "lake",
      "fish_ids": [19, 17, 41, 21],
      "lure_ids": [35]
    }
  ]
}